City,Longitude,Latitude,Distance
-,28.479581,40.621791,0.717069731616
Minsk,27.564289,53.889998,0.0104403065089
Novocherkassk,40.05943,47.362981,0.060745370194
Treviso,11.882536,45.416568,0.43755913886
Zhuzhou,113.143254,27.855797,0.0269258240357
-,73.011439,49.139721,0.752224035777
Xiangkhoang,102.841727,18.938113,0.657602463499
-,106.277444,73.217556,1.54432185764
-,5.266674,51.895167,0.217816436478
El Tur,33.200891,28.355803,0.430215062498
-,34.805083,55.531921,0.604623023048
Venice,12.334999,45.438659,0.0
Ulan Ude,107.615047,51.822273,0.0104403065089
Jeju,126.696307,31.129769,2.38635202768
Changchun,125.351544,43.959462,0.0947628619239
Phrae,100.041333,17.969275,0.220771374956
Karlskrona,15.396006,55.788318,0.42687820277
-,4.383885,50.881437,0.0700357051796
Shenzhen,114.079797,22.511676,0.058
Sandnes,4.925288,58.675234,0.78366127887
Moscow,37.615523,55.752164,0.0
-,51.59452,56.350255,0.598285884841
-,103.53308,37.539741,0.972732234482
-,6.035749,51.42952,0.536
-,32.315028,30.786529,0.204533615819
Greenville,-10.969162,0.903501,4.53787935053
-,10.159523,47.13571,0.547366422061
Ashgabat,58.383299,37.949995,0.0
-,108.149508,32.276381,0.959226771937
-,4.788144,46.274092,0.505746972309
Shar,81.278185,49.309814,0.365826461591
-,-1.44278,46.672817,0.556756679349
Jambi,104.352677,-0.878366,1.02907385546
Millerovo,40.454328,49.02479,0.10400961494
Xam Nua,104.504488,20.121094,0.556288594167
Tashkent,69.294933,41.311702,0.0
-,170.274468,70.267406,0.567342048503
-,26.618911,53.453425,0.683441292285
-,17.054505,48.667554,0.521697230202
Udon Thani,102.950191,17.137778,0.311785182457
Tuymazy,53.552243,54.649117,0.148660687473
-,113.82633,34.532676,0.274235300426
Neftekamsk,54.172726,56.260719,0.19856736892
-,25.441179,57.521231,0.856066586195
Long Beach,-118.200884,33.769376,0.0466154480832
Ankang,109.065588,32.658501,0.0505667875191
Santa Cruz de Tenerife,-16.384339,30.202549,1.73817289129
Manama,50.840707,25.600687,0.685411555199
-,9.678958,52.249474,0.123967737738
Muroran,140.40469,42.642283,0.644894565026
Qulsary,53.952417,46.922193,0.0891403387923
Sivas,37.20144,39.206586,0.56302753041
-,42.193667,40.044122,0.912464793841
-,73.389295,47.202179,1.10617539296
-,32.584604,29.953716,0.0618546683768
Kars,43.320067,40.711988,0.24605893603
-,60.166984,56.850871,0.220056810847
-,70.934394,52.020781,0.811009864305
Gejiu,102.852588,23.659046,0.407492331216
Nizhnekamsk,52.000958,55.356698,0.335931540645
Lyon,4.83003,45.770009,0.0
Los Angeles,-118.262351,34.041682,0.0970978887515
-,109.415934,77.609252,4.15779989899
Penza,45.236484,53.122887,0.242785913924
-,20.608455,45.119166,0.331058907145
-,37.594802,55.826575,0.0778845299145
-,11.485729,48.145991,0.090426765949
Kayseri,35.496051,38.736203,0.0060827625303
-,30.064869,59.581845,0.0688839603972
Düsseldorf,6.779622,51.225944,0.006
-,32.303652,31.233885,0.0295296461205
-,-116.781926,27.793349,2.61941844691
Iwaki,141.59013,36.223831,1.08653623962
Wewak,144.754139,-1.288033,2.52545322665
-,10.012883,53.523665,0.0290688837075
-,32.442335,31.507476,0.290022412927
Kupina,76.921695,53.74857,0.70427551427
-,134.99174,48.97531,0.535522175078
-,131.955431,43.830264,0.0715891053164
-,16.943116,48.148845,0.174002873539
-,52.916305,57.030473,0.361933695585
Exmouth,113.972702,-21.704726,0.271248963132
Kristiansand,7.571251,57.297925,0.969124347027
-,-1.017674,45.556802,0.624118578477
Hamburg,9.999999,53.550025,0.0
-,53.280112,67.857333,0.306315197142
-,64.846415,55.639403,0.530133945338
-,60.429141,55.99896,0.209028706163
-,30.097051,59.456104,0.120503111993
Yuzhno Sakhalinsk,142.737459,47.068774,0.104043260233
-,14.237372,50.898233,0.282065595208
Tallinn,24.728041,59.436083,0.002
-,13.279565,52.338975,0.218680131699
-,7.015226,45.133984,0.658119290099
Nerchinsk,116.425697,52.161406,0.195532605977
-,32.333447,31.278343,0.0466154480832
Aqadyr,72.867594,48.254026,0.0224722050542
-,46.997332,37.376584,0.778188923077
Derbent,48.448209,41.825899,0.288209992887
Horta,-37.779581,32.586815,10.900776532
-,3.008807,50.461525,0.200960195064
Asbest,61.354057,56.732955,0.308084404019
Isla Mujeres,-86.375251,22.776725,1.60457377518
-,62.539363,39.756943,1.22567940343
Rostock,11.483628,54.521742,0.804897509003
Mary,61.843737,37.592339,0.0136014705087
-,46.743907,45.166361,1.7658454066
-,83.041436,55.131219,0.1294681428
Innsbruck,11.53674,47.284534,0.127098387087
-,-26.286252,-0.733904,10.2779488226
-,135.070495,48.537633,0.0968968523741
-,2.019117,47.608587,0.314391475711
-,108.206221,51.928861,0.590234699082
Plovdiv,24.749769,42.133724,0.0203960780544
-,13.219057,52.137603,0.30140504309
Hammerfest,25.903955,71.433857,2.34695227902
Balboa,-79.547381,8.935845,0.0244131112315
Luanda,12.048597,-9.756805,1.49959527873
Jihlava,15.947183,49.547509,0.392937654088
-,32.42155,70.579545,1.71680196878
Port Louis,70.331608,-17.363292,13.1347873984
-,9.248998,53.875451,0.743764747753
Saryshaghan,73.592009,46.154192,0.0434165866922
Rotterdam,4.489608,51.92002,0.01
-,30.277678,59.833638,0.111664676599
-,47.858929,58.281265,0.455580947802
-,25.770411,38.856185,0.61
Ulaanbaatar,106.916616,47.916673,0.0
Sari,52.847542,36.460719,0.267254560298
-,47.660182,47.167274,0.908377124327
Partizansk,134.466116,42.898729,1.35176070368
Tampico,-97.916043,22.40514,0.11463420083
Melilla,-2.442225,35.88506,0.774783195481
Prague,14.46598,50.083337,0.0
Murmansk,33.006453,69.301076,0.344088651368
Subotica,19.690572,46.088734,0.0219544984001
Kargat,79.7209,55.298725,0.56939353702
-,32.56998,30.208715,0.204978047605
-,37.682523,55.781876,0.0734098086089
Petropavlovsk,69.243019,54.854573,0.0339705755029
Nizhneudinsk,98.836454,55.012871,0.223805719319
-,27.836835,40.581806,0.523650646901
-,11.179869,48.848717,0.281320102374
Taonan,122.788194,45.162985,0.167191506961
Blida,2.22688,37.024004,0.853478177811
Tyumen,65.521905,57.145589,0.01
-,10.024397,53.552402,0.0240831891576
-,46.724821,48.237786,0.557509641172
-,98.668322,55.603057,0.753674332852
Calbayog,126.402359,13.873023,2.54841911781
-,32.312861,30.966234,0.29489828755
Obninsk,36.468345,55.599375,0.54080033284
Chongqing,106.594982,29.564977,0.0
Kulunda,78.954756,52.572772,0.0128062484749
-,9.83157,47.138808,0.31503968004
Pochutla,-96.275377,12.922246,2.81476268982
Martapura,114.908181,-5.325725,1.91335516828
Dijon,4.482789,46.973559,0.652644619989
-,1.485109,48.450807,0.6898014207
Poti,41.713794,42.411075,0.258435678651
-,80.846898,52.965811,0.963144848919
Uelen,-169.430673,66.405036,0.455412999375
-,37.903584,55.760941,0.288140590684
Krasnodar,38.893069,44.916152,0.149214610545
-,86.214421,-3.584135,11.0922644217
-,113.021781,27.474186,0.378312040517
-,-0.877128,45.950861,0.348116359857
Melekeok,136.083548,13.152725,5.85033375116
Turkistan,68.23955,43.273994,0.0317647603485
-,10.626683,47.180062,0.789359867234
-,15.682845,48.217299,0.684211224696
-,-80.086876,10.288997,0.948008438781
-,74.051295,43.906771,0.437012585631
-,-168.656194,-25.2679,7.75550552833
Mahilyow,29.520887,54.318292,0.906629472276
Maxixe,37.775894,-23.408629,2.43035347223
-,37.736958,55.750565,0.121004132161
Egvekinot,-179.735521,62.923954,3.44254382688
Yeghegnadzor,44.984518,39.546203,0.409058675498
-,9.535402,53.621969,0.470541177794
Chita,113.518793,52.031847,0.0586941223633
-,7.034273,51.21613,0.140185591271
-,8.027695,54.332076,0.957197994148
-,12.431077,52.865736,0.790871038792
-,47.673243,46.326201,0.382691781986
Shangqiu,115.850338,34.435081,0.200561711201
Sarapul,53.906459,56.422353,0.121235308388
-,28.745081,41.060248,0.268793601114
Buynaksk,46.669375,43.835444,1.09596532792
Geneva,6.142697,46.205427,0.00583095189485
Poznan,16.887369,52.379847,0.0290688837075
Dongguan,113.817076,23.190262,0.158319297624
Toulouse,1.460418,43.591073,0.0306757233004
Smolensk,32.34378,54.81225,0.298412466228
Le Mans,0.129943,47.965273,0.0460977222865
Berlin,13.401953,52.521819,0.0
Munich,11.580186,48.134953,0.00707106781186
Whangarei,164.616234,-33.303404,9.99077199219
-,11.717748,53.211742,0.51753453991
-,10.359435,52.456368,0.249633731695
Frolovo,43.890237,49.596798,0.295413269844
-,4.298855,51.887972,0.183806963959
Lille,3.14039,50.680542,0.0675351760196
-,44.618347,48.82289,0.158492902049
-,48.132378,54.610832,0.395278382915
-,30.278868,59.932372,0.0376563407675
Newcastle,151.793841,-32.924999,0.082710337927
Qapshaghay,77.080695,43.889128,0.013
Novara,8.231834,45.438138,0.388185522656
Tikhvin,33.030129,59.680614,0.485336996323
-,8.644042,53.980838,0.435725831229
Dortmund,7.727952,51.538168,0.278115084093
Jixi,130.99268,44.384027,0.91628870996
Gdansk,18.639363,54.371131,0.0110453610172
Khromtau,58.160744,50.263709,0.289062277027
Dalnegorsk,136.843029,43.816179,1.50934323466
-,-169.496027,65.726733,0.530616622431
Bahawalpur,71.674994,29.389975,0.0
-,4.447512,51.925325,0.0323882694814
Xingyi,104.971699,25.279386,0.206021843502
-,-5.834407,35.985197,0.238002100831
-,65.861513,29.349582,1.45240111539
-,27.905022,41.259849,0.477897478545
-,60.475733,56.883849,0.128576825284
-,60.436436,56.886712,0.168121979527
Khorgo,114.410366,75.336778,2.01139652978
Miami Beach,-79.651047,25.204002,0.773690506598
Mossel Bay,21.972938,-35.400177,1.23997943531
Hohhot,112.34471,40.998197,0.707749249381
-,86.838922,44.15572,0.815412165717
Nordvik,108.391083,73.587523,3.14836497249
Cordova,-146.217584,56.321832,4.24609962201
Zunyi,106.933235,27.69859,0.0130384048104
-,60.373855,56.863003,0.226373585031
Bordeaux,-0.595013,44.850013,0.0
-,30.335326,59.942021,0.0192353840617
Maceio,-32.139243,-12.895341,4.86013436028
-,9.155179,43.984647,0.480884601542
-,6.437832,45.240487,0.720502602355
-,37.918199,55.673029,0.312161817012
Liuzhou,109.293896,24.695579,0.418320451329
-,39.584941,46.407559,0.746351793727
Zalantun,122.798108,47.972571,0.0825408989532
Qazvin,50.031311,36.256352,0.0340147027034
-,131.951271,43.451143,0.323607787298
-,63.861905,39.514099,0.492686512907
Baranavichy,25.902247,53.139377,0.111018016556
Antwerpen,4.421059,51.214673,0.0078102496759
Nizhny Novgorod,43.94799,56.322794,0.0529528091795
-,32.560223,29.929294,0.0766550715869
Kecskemet,19.715727,46.898352,0.0161245154966
Zahedan,59.9177,29.85999,0.980481514359
-,50.703802,54.3972,0.97004793696
-,117.964862,32.835132,0.645329373266
-,64.171499,11.322955,8.50004447047
Tanta,30.985764,30.786813,0.0143178210633
Victoria,-122.980868,48.336336,0.38153636786
-,24.309897,52.403051,0.681108655062
-,34.213293,59.519389,0.710265443338
-,11.440984,48.26602,0.190924068677
Port Hedland,118.620655,-20.321286,0.0186010752377
Novoaltaysk,83.937316,53.381689,0.0278028775489
Damanhûr,30.562893,30.961786,0.128035151423
Baku,49.856956,40.402234,0.00860232526704
Istanbul,29.010002,41.104995,0.0
Baoji,107.107126,34.352054,0.0513127664427
Aral,61.721203,46.778246,0.0583095189484
Aksu,80.4853,41.33538,0.299081928575
Chengde,117.992682,41.103092,0.156262599492
Tskhinvali,43.667794,42.01034,0.378857492997
Kirovo-Chepetsk,50.328097,58.417039,0.315317300509
Erzincan,39.495757,39.737486,0.0162788205961
-,-175.077049,35.499897,16.7190174652
Alekseyevka,39.624732,50.658736,0.932019313105
-,26.842256,40.481199,0.549837248647
Mengzi,103.436215,23.412184,0.0583095189485
Perth,115.853052,-31.888876,0.0672681202354
Icel,34.607246,36.852718,0.0545710545986
-,106.564232,48.061158,0.381241393345
Linz,14.446472,48.045722,0.314925387989
Slyudyanka,103.636915,51.672027,0.0645600495663
Perm,56.131145,58.035217,0.124040316027
Obock,43.981471,11.916399,0.69733349267
Bur Said,32.306361,31.25519,0.0167630546142
Pevek,170.399628,69.67337,0.091394748208
-,28.952982,41.004642,0.115104300528
Hasselt,5.506302,50.882034,0.0848999411072
Karasuk,77.962775,53.775091,0.0760591874792
Novy Port,69.971941,73.757016,6.74161827754
-,120.315538,30.158814,0.172037786547
Budapest,19.083321,47.500006,0.0
-,60.843574,50.473409,1.33414392027
-,93.108719,56.025951,0.243296115875
Linkou,130.384119,44.623252,0.672090023732
Nis,21.540098,43.605438,0.4530176597
Almaty,76.915036,43.331274,0.006
-,105.467976,0.502211,1.07992314541
Hios,25.72166,38.177632,0.455517288366
Siracusa,15.92493,36.09756,1.16103789774
Houston,-95.369134,29.753941,0.0720902212509
-,107.879251,26.526975,1.16021118767
Progress,129.957246,49.700584,0.3435127363
Saraburi,100.755547,14.461703,0.141421356237
-,63.226011,56.953057,0.959588453453
Erfurt,10.951811,50.925913,0.089554452709
San Juan,-63.512156,21.977421,4.40048781387
Novi Sad,19.780936,45.297865,0.0840535543567
Jakarta,106.829438,-6.174418,0.0
-,131.983789,43.60632,0.197311935777
Svolvær,12.583587,68.869762,2.08280051853
Vyshnniy Volochek,34.516417,57.606714,0.0527730992078
Qui Nhon,113.563913,15.30644,4.64199655321
Namur,4.918229,51.010608,0.543125215765
Novosibirsk,82.951384,55.02996,0.009
Kirov,49.484001,58.52038,0.198736005797
-,60.975772,47.325412,0.867816800944
Shijianzhuang,114.477363,38.026495,0.0241867732449
Atka,-178.580088,49.823121,4.98151874432
-,6.103627,50.945195,0.436798580584
Kokshetau,69.402742,53.306311,0.0180277563773
Bugulma,53.01436,54.625309,0.23117309532
Curepipe,61.992481,-31.238852,11.8041329203
Furth,11.074859,49.705356,0.246677927671
-,46.929721,47.672294,0.973432072617
Slavgorod,78.768176,52.797569,0.229026199375
Tromsø,19.960141,70.743218,1.47128787122
-,29.657185,31.326003,0.318943568676
Piraiévs,23.642152,37.944808,0.0582151183113
Messina,15.820397,38.433763,0.357289798343
Vorontsovo,83.180304,71.765699,0.389974358131
-,6.354398,46.497172,0.297833846297
-,25.618156,39.205366,0.941803588866
-,51.333084,56.209161,0.748952601972
Aarau,7.8925,47.35216,0.146030818665
Naryan Mar,53.075357,67.677481,0.0349857113691
Nagercoil,76.410641,6.490428,1.97343887668
Tangier,-5.834591,35.755906,0.00921954445729
-,77.968956,44.354087,0.776580324242
Riga,24.099965,56.950024,0.0
Jhang,72.317392,31.630186,0.350091416633
Edirne,26.541852,41.672476,0.0280713376952
Shaoyang,111.492048,27.621082,0.686225181701
Hampton,-76.324463,36.958189,0.076550636836
Tiksi,128.974615,71.644189,0.141028365941
-,57.634149,57.435707,0.680000735294
-,159.270642,28.20454,18.7519181952
-,2.843592,60.563415,2.48695496541
Chittagong,91.49992,21.484845,0.896674411367
Arnhem,5.975037,51.987895,0.052
Astana,71.379921,51.210944,0.0566038867923
-,103.248024,72.370998,0.849699358597
Kaka,59.959149,37.180393,0.397216565616
-,16.865182,48.106242,0.255812431285
Arzamas,43.845512,55.416055,0.0487031826475
Izhevsk,53.203645,56.823415,0.037483329628
Grenoble,5.781313,45.19766,0.0636003144646
-,56.323449,50.828496,1.00881762475
-,6.83022,45.037773,0.840609302827
Volgograd,44.385596,48.769485,0.128362767187
-,134.61778,48.687066,0.553017178757
Kaohsiung,120.266602,22.633307,0.0
Calais,2.105304,51.467902,0.58507093587
-,-0.888771,46.41212,0.357974859452
-,32.354845,30.428873,0.186938492558
-,-62.612598,43.734658,1.34588038101
Viseu,-43.060607,1.632589,4.18132538796
-,131.960065,43.441693,0.315981012088
-,-134.273704,35.000243,11.3262742771
Toguchin,84.238893,55.619059,0.405563805091
Luohe,114.038698,33.569108,0.00905538513814
Lublin,21.99858,51.966234,0.917677503266
Cherlak,74.833136,53.921256,0.239353295361
Hamamatsu,140.315095,26.574883,8.54255073149
Datong,113.271184,40.057752,0.0364005494464
Sharya,44.984073,58.346772,0.526036120433
-,6.930861,52.308978,0.767881501275
-,39.072086,21.333277,0.23551008471
-,55.209165,45.308187,0.165849329212
Vila Velha,-39.009408,-21.518995,1.7430668375
-,79.652162,46.918022,1.30441289475
Valencia,-0.405124,39.42873,0.0562227711875
Pingxiang,113.729707,27.594268,0.122784363825
-,12.392995,45.437446,0.0580344725142
Szeged,20.113807,46.238418,0.037947331922
Zholymbet,71.097482,51.733051,0.613235680632
-,48.082015,46.517927,0.171143214882
-,4.962676,52.106957,0.157155973479
-,107.417676,52.132514,0.371097022354
Omsk,73.25033,54.935724,0.159423963067
Tralee,-18.861323,50.21403,9.37163512947
Qazaly,62.148453,45.847253,0.0930376267969
Hanggin Houqi,107.510226,40.771532,0.38687077946
-,132.268117,44.045324,0.348610097387
-,40.581474,52.113127,0.751354110922
-,27.789963,60.948347,0.410621480198
Ayakoz,80.380599,47.826134,0.147383852576
Longjiang,122.859565,47.533474,0.373696400839
Amderma,61.583045,71.129221,1.3686420277
-,11.7615,53.008559,0.712539121733
Uthai Thani,100.191835,15.481359,0.193279590231
-,110.823996,28.132338,1.1928118041
Qingyuan,113.053539,23.445576,0.255131338726
Khatanga,102.438701,71.954779,0.0898443097809
Kerman,56.988113,29.840566,0.468129255655
Chelyuskin,103.219723,77.901146,1.04630588262
-,51.511489,54.467937,0.917117767792
Shangdu,113.286422,41.317577,0.338917394065
Panaji,73.920767,14.093017,1.40278651262
-,50.789003,27.140925,0.92814923369
Maiquetia,-66.925459,10.600516,0.0450111097397
Makhachkala,47.41021,43.025511,0.101074230148
Gujrat,74.10642,32.578048,0.0260768096208
-,30.236979,60.098455,0.177544360654
-,93.225035,55.870277,0.386803567719
Changsha,112.969993,28.19997,0.0
-,2.335651,49.678191,0.224899977768
-,38.593393,20.173103,1.48263684023
-,106.095328,0.934449,1.6240889754
Pakhachi,169.742297,58.46788,2.2243785649
Leeuwarden,5.158617,53.834828,0.855336775779
-,73.503154,46.884043,0.772756106414
-,44.509632,55.592568,0.735764228541
-,66.529588,22.796497,2.12440015063
Solnechnogorsk,37.175401,55.986362,0.275065446758
-,12.430254,45.422407,0.0965090669316
Eskisehir,30.760467,39.812544,0.230703272625
-,2.779228,50.123252,0.16004999219
-,135.253612,49.447066,1.00100949046
Naberezhnyye Chelny,52.281589,55.676117,0.0449444101085
-,30.376609,59.903896,0.0703278038901
Chaman,64.667481,28.915969,2.68345337206
Fox Bay,-62.363316,-55.559316,4.26589263812
Chenzhou,113.056863,25.258205,0.54267209252
Morioka,142.726011,39.034288,1.73718507937
Aginskoye,114.464683,51.605603,0.506332894448
-,6.040302,45.489534,0.417167831933
L'Ariana,10.359379,36.816356,0.166979040601
Velikiy Novgorod,31.800315,59.050827,0.724224412734
-,11.517095,48.543177,0.23668122021
Almetyevsk,52.266345,54.735051,0.173611635555
Chifeng,119.265845,42.201747,0.323233661613
Angers,-0.613262,47.422007,0.101257098517
Schwerin,11.211586,53.411748,0.301439877919
Ganca,46.409576,40.695122,0.060827625303
-,106.738559,48.241675,0.370552290507
Ipswich,1.344808,51.972424,0.200571682947
-,83.471024,53.889323,0.359762421606
Rosenheim,12.117748,47.850613,0.0150332963784
Dzuunmod,107.151187,47.838929,0.240831891576
Cheboksary,47.245534,56.104875,0.0253179778023
-,12.081212,52.904313,0.90088678534
-,-34.669438,49.220113,12.266124123
Lao Chi,103.954755,22.525845,0.0273130005675
Visby,17.939052,58.442229,0.884977400841
-,30.91682,31.802602,0.628790903242
-,45.440291,38.99904,0.211858443306
-,10.58996,37.327411,0.603075451333
Yining,82.911027,44.620971,1.71946561466
Frederikshavn,11.052492,57.513318,0.524978094781
-,3.041735,50.343487,0.265858985178
-,53.378542,57.902148,0.781882983572
Gornyak,80.935093,51.002123,0.553177186804
Borovichi,32.817195,58.61101,1.10080379723
Kungur,57.156672,57.35172,0.21931256234
-,12.59234,47.69942,0.461546314036
Trepassey,-53.438593,46.171266,0.571079679204
-,54.353413,24.539621,0.0743303437366
Chistopol,50.185025,56.112387,0.87518283804
-,99.554878,-16.89605,12.396339016
Rawalpindi,72.941536,33.689154,0.132382022949
Dieppe,0.717581,50.594501,0.755080128198
Chelyabinsk,61.438668,55.154991,0.0
Amiens,2.347325,49.866616,0.0574282160614
Brive,1.479362,44.906133,0.249903981561
Rome,12.483258,41.895956,0.0
Krasnoyarsk,92.791345,56.038201,0.0787464284904
Matruh,27.106648,32.423387,1.08002685152
-,131.950775,43.409595,0.282985865371
Nukualofa,-180.368472,-26.688185,7.56855402306
Shalqar,59.191189,47.995471,0.451896005736
London,-0.116722,51.499995,0.0
Pavlodar,76.795208,52.25758,0.160589538887
Kuqa,84.093241,41.848458,1.16320634455
Bam,58.714771,28.932007,0.394442644753
-,6.590762,51.331903,0.186775266028
-,54.012684,51.923267,1.10628115775
Bukhara,64.29064,39.708839,0.156083311087
-,37.708557,55.780068,0.0971236325515
Dushanbe,68.773879,38.560035,0.0
Coburg,11.037504,50.374992,0.129247823966
-,-0.384774,43.300108,0.472771615053
Ekibastuz,75.576341,51.78746,0.262268945931
-,106.3017,51.953369,0.700562631033
Xinyu,115.05876,27.84234,0.135665028655
Helsinki,24.939346,60.17204,0.00640312423744
Palikir,151.261826,8.27035,7.0196262721
-,131.955805,43.831933,0.07155417528
-,48.021097,46.764989,0.417387110486
Linchuan,116.894838,28.276894,0.616825745247
Hurghada,34.474747,27.246587,0.645223992114
Amsterdam,4.91664,52.349969,0.0
Hengyang,112.672134,26.897703,0.0839523674473
Maqat,53.382494,47.6501,0.0550363516233
Oktyabrsk,57.426974,49.448308,0.0308058436015
Kawasaki,139.634183,35.448948,0.107712580509
Phitsanulok,100.109485,17.158758,0.369400866269
-,87.64312,42.279638,1.52651531273
Bac Lieu,106.671747,6.753892,2.69944068281
-,42.099735,42.266844,0.442159473493
Gympie,153.029633,-25.902677,0.458995642681
-,106.533271,47.937361,0.384520480599
-,9.353241,53.816215,0.699546281528
-,4.487396,51.114292,0.128140547837
Changling,123.187139,44.344666,0.806494885291
-,-0.5392,42.57482,0.905454581964
-,-44.058491,35.478686,14.6056697553
-,-50.97762,28.356083,14.3566528132
Kutaisi,42.703717,42.201207,0.0554707129934
Barysaw,28.577411,54.252133,0.0888875694347
Isikul,72.036008,54.984493,0.769966882405
Jinhua,119.934083,29.218782,0.30076070222
Kotovsk,41.236883,51.960014,0.688849765914
-,106.613524,47.881616,0.305014753742
-,104.513722,51.401426,0.853366275406
Obluchye,130.942215,49.002832,0.141031911283
Utsunomiya,139.95626,36.857386,0.318818129974
Mito,140.792595,35.354556,1.06216477065
Cottbus,14.349439,52.332339,0.562321082657
-,32.530976,30.253648,0.24972384748
Otar,75.198206,43.538835,0.0164924225025
Igarka,86.541679,67.490466,0.0470106370942
Lupanshui,104.635342,26.690825,0.220483559478
-,2.430632,48.796221,0.121016527797
-,44.901031,41.619272,0.152761251631
Seattle,-122.235693,47.685496,0.155051604313
-,9.649964,52.321601,0.0807093550959
Angangxi,123.871005,47.057565,0.124277914369
Barnaul,83.110437,53.128896,0.674018545739
Dresden,13.323427,51.329474,0.510068622834
-,10.946853,52.432379,0.482631329277
Poronaysk,142.993596,49.235233,0.0912688336728
-,4.456215,51.938064,0.03
Brighton,-0.417639,50.399442,0.497257478576
Kogon,64.555772,39.713571,0.0122065556157
Vaduz,9.608358,47.232016,0.133734812222
-,140.342928,50.753245,0.838687069174
Nouadhibou,-19.980746,23.007459,3.60486809745
Buyant-Uhaa,110.765849,44.753971,0.626278691958
Santa Barbara,-120.431593,32.090621,2.44975100776
Pskov,28.372546,57.800597,0.0518652099196
-,48.191426,39.860069,0.732546926824
Sukabumi,101.259651,-14.456332,9.42081291609
Tatarsk,75.478473,55.115159,0.50056967547
-,-7.092013,-38.221671,25.0811578082
-,53.467921,44.294459,1.19760594521
-,114.009705,51.595209,0.7107974395
Bogotol,88.941455,56.064427,0.596685009029
-,126.669441,31.082386,2.4324458884
Cranbourne,144.929738,-38.592737,0.606348084849
Ust Olensk,121.17381,75.104417,2.52943412644
-,9.990953,53.454216,0.0964209520799
Chapayevsk,49.667496,52.951894,0.0610982814816
Middelburg,3.552707,51.422232,0.0982293235241
Ayutthaya,100.566121,14.368122,0.00921954445729
-,26.398748,40.202149,0.0564358042381
-,134.494355,47.41039,0.28131477032
-,105.905188,-2.867601,0.825208458512
Shumerlya,46.582998,55.476533,0.159201130649
-,71.004291,51.708167,0.67639115902
-,22.564944,43.13465,0.6930007215
Uyar,94.328517,55.805907,0.0145602197786
Nantes,-1.52413,47.219401,0.0666108099335
Harper,-7.908256,3.675893,0.724625420476
-,5.447746,45.35253,0.322355393937
-,-0.399552,45.41301,0.595813729281
Kirsanov,42.522862,53.2234,0.598324326766
Rustavi,44.940912,41.653935,0.137611772752
Mombasa,39.689918,-4.040026,0.0
Mitilini,26.605222,38.644366,0.46867472729
-,32.390329,31.359563,0.141421356237
Rio de Janeiro,-43.177453,-22.874109,0.0700357051796
Verkhniy Ufaley,60.183159,56.167464,0.111825757319
Mendocino,-125.096506,37.583288,2.15880267741
Grytviken,-32.826131,-38.332208,16.3684979457
Tômbua,10.171569,-16.623055,1.87794382238
Ludhiana,75.860466,30.910838,0.0208086520467
-,116.249697,39.765605,0.21357200191
Khon Kaen,102.766768,16.165522,0.26169638897
Bilecik,29.983168,39.939278,0.211
-,78.867234,52.623802,0.0898943824719
Dhaka,90.419646,23.795813,0.0738241153012
Irkutsk,104.219991,52.317242,0.025179356624
Hamilton,-61.142485,33.805154,3.94300456505
Inowroclaw,18.263009,52.230936,0.549153894642
Pattani,102.562949,8.571898,2.15435210678
Vladivostok,131.979053,43.392409,0.270933571194
Otaru,138.803711,45.50261,3.1750388974
-,31.773182,59.074758,0.725860868211
Krasnokamsk,55.169543,58.256172,0.601861279698
-,106.019879,48.940896,0.453083877444
Murom,42.355332,56.100739,0.617402623901
-,29.623221,60.220903,0.748179791227
Daru,142.546148,-10.037173,1.1552177284
-,4.355017,47.121509,0.706320748669
Slobodskoy,50.702604,58.481135,0.56691621956
Tanjungpandan,107.029763,-3.493608,0.968470959812
-,-1.275593,46.47219,0.330001515148
Shahhat,21.61677,34.785442,1.9722763498
-,128.965108,44.927093,0.717306768405
Byron Bay,153.670326,-28.640129,0.0594810894318
-,46.332501,43.515934,0.663901348093
-,40.106663,53.699422,0.890421248623
-,165.267727,45.993031,9.70189600027
Ali Bayramli,48.943562,39.951206,0.03061045573
-,53.142835,57.88005,0.568546392126
Kitty Hawk,-73.900028,37.007093,2.03049870721
-,28.358766,41.219443,0.660906196067
Münster,7.34461,52.329381,0.452223396122
Freetown,-16.338185,5.911364,4.02284687752
Kotelnich,48.336322,58.324001,0.0297321374946
La Rochelle,-1.152791,46.147803,0.0192353840617
Bergamo,9.504475,45.516111,0.247814446714
Xiangtai,114.579005,37.418942,0.377361895268
-,1.208692,43.288232,0.410249923827
-,-0.685349,42.201175,0.587899651301
Ishim,69.19715,56.215008,0.261216385397
-,56.669034,57.492472,0.290644112275
Lazaro Cardenas,-102.189202,17.933887,0.0273130005675
Warrnambool,142.261522,-38.835378,0.500288916527
Tbilisi,44.814368,41.702671,0.0318276609257
Karachi,66.990009,24.869992,0.0
Maragheh,45.858683,37.533185,0.37827238863
Dzuunharaa,106.754858,48.823399,0.291341723754
Wuwei,102.573806,37.977219,0.0830060238778
Bishkek,74.585204,42.873079,0.0
Weihai,122.231344,37.81898,0.344850692329
Bridgetown,-43.351775,24.268103,19.7289072429
-,9.664427,47.35469,0.191971352029
Makhambet,51.080543,47.252262,0.651584223259
Isfahan,52.120031,32.685907,0.420233268554
-,-0.718166,45.272973,0.440520147099
-,4.716782,45.940504,0.204963411369
-,121.289154,48.826023,0.645368112011
-,79.521987,51.850567,0.930832423157
Praia,-22.243486,11.419432,3.72277853223
Omutninsk,51.769997,58.304865,0.52596292645
-,32.419379,30.281721,0.306414751603
-,76.658106,52.204699,0.307065139669
Catania,15.386221,37.616499,0.327249140564
Bengbu,117.345752,32.87436,0.0776659513558
Bern,7.446555,46.948382,0.0368917334914
Monterey,-134.556101,26.238052,16.3614573923
-,40.19666,39.915127,0.722398781837
Mukhomornoye,175.893493,70.083528,4.47219062653
Guerrero Negro,-115.213226,28.18332,1.06070636842
-,52.262114,55.841028,0.152463110292
-,16.477224,48.151437,0.12042009799
Samara,50.401173,53.269181,0.260722074248
Magdeburg,11.863053,52.595696,0.525552090663
Zhanyi,103.825573,25.601817,0.00921954445729
Santos,-46.288955,-23.963258,0.0449110231458
Sochi,40.194371,43.438575,0.487951841886
-,29.555383,59.453129,0.589922028746
Verona,10.483278,45.456385,0.507252402656
Majene,117.96052,-2.79088,1.24982958838
-,2.52191,49.064759,0.273724313863
-,4.747884,52.429762,0.128156154749
Lahad Datu,120.522321,5.313237,2.20224544499
Beyneu,55.151026,45.144451,0.0642028036771
Bandar Lampung,105.533522,-5.992165,0.590355824906
Hisar,75.798301,29.81944,0.653092642739
Salzburg,13.100461,47.830302,0.0632455532034
Nogliki,143.168477,51.847783,0.0150332963784
Abu Dhabi,54.366593,24.466684,0.0
-,131.955788,43.829931,0.0706823881883
Beringovskiy,176.821762,62.158447,2.64534950432
Nikolski,-170.6193,52.193947,1.90250808145
-,117.415259,40.01521,0.86263143926
Yemanzhelinsk,60.973393,55.009373,0.413087157873
Brno,16.609983,49.200393,0.0
Oakland,-122.272076,37.808726,0.0648151216924
-,25.312524,57.253962,1.14404064613
-,96.884611,40.557694,1.08654912452
-,35.504434,59.505595,1.95195107521
Vyazemskiy,134.791365,47.544861,0.0456070170039
Las Tablas,-79.414366,7.232584,1.0137479963
Iskitim,83.295428,54.627162,0.0252982212813
-,64.870433,40.048507,0.461042297409
-,91.788174,56.070029,1.07945356547
-,45.777476,48.580364,0.494231727027
Xian,108.894996,34.275025,0.0
Kudymkar,54.590292,58.026756,0.989934341257
Lagos,3.377346,6.514841,0.0735459040328
Changyon,124.137435,38.507602,0.998379186482
Ceuta,-5.336387,35.970496,0.0860348766489
Provideniya,-173.010267,64.329735,0.235170151167
Asha,57.557352,55.060034,0.290688837075
-,38.678387,55.775798,0.219180291085
Magong,119.275005,23.582704,0.308415304419
-,64.122935,52.406124,0.479826010133
Severo Kurilsk,156.9962,50.453828,0.941072260775
Jena,11.874731,51.374201,0.533067537935
Borisoglebsk,42.165393,51.35781,0.076791926659
Busselton,114.643296,-33.976153,0.775136117079
Mys Shmidta,-179.394331,69.018749,0.135871262598
Birobidzhan,132.532669,48.998233,0.463815696155
Qom,50.863963,34.641069,0.086469647854
Chokurdakh,146.313468,73.03094,2.88535838329
Maumere,122.369639,-7.06088,1.56599106
Buzuluk,51.85593,53.037643,0.479970832447
Gyumri,43.831161,40.754846,0.0375765884561
Kansk,95.877655,56.281486,0.191062816895
Sitka,-136.724984,54.360401,3.04000148026
Cairo,31.249968,30.04996,0.0
Barabinsk,77.686229,55.357856,0.66600075075
Nacala,42.646979,-14.254132,1.95008948513
Yinchuan,105.425195,37.516728,1.27416835622
Unalaska,-166.390155,53.806066,0.155347996447
-,105.763303,72.842799,0.965994306401
-,44.175169,56.676781,0.38595466055
San Francisco,-122.466065,37.79932,0.0593043000127
Kamenka,44.21911,53.124556,0.18848076825
Ryazan,39.707051,54.618799,0.0130384048104
-,-176.884297,63.541933,3.60810199412
Suez,32.58515,29.995001,0.0364005494464
Anshun,105.665925,26.019169,0.35079481182
Maastricht,5.626932,50.762518,0.10295630141
-,122.812823,42.035828,0.677591322258
-,64.954091,52.309279,0.384079418871
Groznyy,45.986379,43.438677,0.311077160846
Kelang,100.642163,3.021433,0.908000550661
Charleston,-79.944214,32.785839,0.0483735464898
Shoyna,42.614306,67.40109,1.58887287094
Quetta,67.196256,29.957101,0.31370368184
-,13.376945,52.509732,0.0277308492477
-,48.504493,55.319737,0.542440780178
Muscat,58.593312,23.613325,0.0
-,59.412572,56.792664,0.554484445228
Krasnogorsk,142.504343,48.139172,0.525095229458
-,37.772959,55.735164,0.157917700085
Lausanne,6.822386,46.557434,0.174106289375
Muisne,-82.545835,3.606961,3.91952611932
Bairnsdale,148.760375,-38.029457,1.16709082766
Hannover,9.746135,52.374812,0.030083217913
-,9.92792,53.540319,0.0726911273815
Bandar-e-Abbas,56.272136,27.20406,0.0
-,0.882727,43.108106,0.763958768521
Orleans,1.919871,48.156375,0.256780061531
Kawagoe,139.606701,35.929337,0.116520384483
Chiang Mai,98.980046,18.799975,0.0
Hangu,117.706564,39.115354,0.136341483049
Balkanabat,54.687345,38.909612,0.682706379053
-,53.813805,67.939923,0.811725323
Dagupan,119.287142,16.06388,1.05412143513
Harbin,126.649985,45.749984,0.0
Samarqand,66.994565,39.662718,0.0504876222455
-,-0.610288,45.734729,0.691537417643
-,43.316089,41.96992,0.649458235763
Kara Balta,74.102798,42.809912,0.218013761034
-,47.211927,46.168922,0.862002900227
-,1.538822,44.18659,0.573942505831
-,31.084951,59.753311,0.435607621605
Santa Maria,-121.809845,33.713433,1.84137394355
Santiago de Compostela,-10.983737,43.350322,2.48723501101
Olbia,11.145454,39.95701,1.89017168532
-,114.328017,76.88866,3.47678587204
Baykonur,63.688081,45.755105,0.451558412611
Orsha,30.438695,54.602434,0.0886453608487
Golyshmanovo,68.551669,56.372523,0.18122361877
Dimitrovgrad,49.41501,54.342996,0.172261429229
Hirosaki,138.788234,41.138025,1.77531630984
-,81.848139,5.699211,1.32873059722
Kalmar,17.352195,56.225787,1.07921545578
Bourges,2.030746,47.00352,0.377572509593
Savannah,-81.105266,32.104518,0.0841486779456
Lecce,18.71408,40.792623,0.711045005608
Kailua-Kona,-155.777997,19.39845,0.326455203665
Puqi,114.385192,29.97225,0.564383734705
Makinsk,70.224841,52.919306,0.334762602451
Muynoq,57.448311,44.001271,1.59016288474
-,38.649618,20.262014,1.37796444076
-,108.993316,22.879842,0.653104126461
Achinsk,90.176423,56.297545,0.325207625987
Bugrino,49.41324,69.770581,0.969149111334
-,46.616721,57.671334,1.31542578658
-,10.701153,58.271184,0.853693738995
Eindhoven,5.473415,51.442103,0.0295465734054
-,48.034136,55.743902,0.611923197795
Lahti,25.635306,60.980115,0.0331058907145
Tongliao,122.240601,43.661279,0.050219518118
Asahikawa,142.361969,43.932514,0.178907797482
Sept-Îles,-66.047443,49.74244,0.653792780627
Torzhok,35.393279,57.165075,0.435765992248
Uroteppa,68.761693,40.153169,0.332388327112
-,19.978605,52.09149,0.615337305874
Shangzhi,128.042621,45.045275,0.189615400218
Puerto Villamil,-90.337324,-3.704565,2.85418709968
-,25.696498,59.25352,0.896290131598
-,5.690216,58.001289,0.844
-,44.040274,11.854455,0.763332823872
-,104.211963,24.760122,0.75404509149
-,53.086563,57.713991,0.614039900984
-,-1.297089,47.340671,0.320951709763
-,8.331718,51.668797,0.411734137521
Kavaratti,71.633525,8.502704,2.29120252269
-,134.586546,48.577042,0.546784235325
Madrid,-3.679023,40.400026,0.004
Kurgan,65.279854,55.444302,0.0669402718847
Dasoguz,59.953608,41.849753,0.0148660687473
Vancouver,-123.107818,49.317564,0.0471274866718
Rashid,30.182815,31.669198,0.294159820506
-,151.817491,47.752587,5.1809065809
-,6.223297,45.565511,0.35041689457
Capitol Hill,148.733116,23.031623,8.37020698669
Mozhga,52.608601,56.574372,0.441345669515
Akhtubinsk,46.183522,48.275121,0.0155241746963
-,48.524344,55.787638,0.141315250416
-,12.063663,47.392372,0.463168435885
Kouvola,26.588866,60.840182,0.125283678107
Ankara,33.173458,39.983465,0.31403343771
Qinhuangdao,119.59418,39.892805,0.0452216762184
-,39.072435,44.611687,0.414304236039
Karratha,116.356369,-20.312875,0.661879898471
Pangkalpinang,105.676292,-2.300917,0.522988527599
Brussels,4.333317,50.833317,0.0
Brisbane,153.177449,-27.404821,0.150545674132
Oymyakon,1.970134,-9.804419,9.99996579994
-,1.500576,46.030956,0.321561813653
Xuzhou,117.231305,34.278413,0.0510392006207
Tobol,62.60434,52.685251,0.0317804971641
Lubeck,10.743587,53.38198,0.493578767777
-,52.262621,55.8106,0.124779806059
Serang,104.898307,-7.241189,1.68720627073
Imbituba,-46.50125,-29.3342,2.42489113158
-,-0.543547,44.979356,0.13871553626
Korsakov,144.801965,46.004763,2.12282688884
Marseille,5.370927,43.315448,0.0253179778023
Phichit,100.43929,16.150734,0.301734983056
Xuanhua,115.543423,40.281505,0.605561722701
-,141.343392,52.177094,0.90426765949
Tunis,10.179678,36.802778,0.0
Pyongyang,125.754691,39.019439,0.0
-,34.784426,57.554235,0.222894593923
Shu,73.769642,43.566785,0.0375366487582
Belgrade,20.467991,44.818645,0.0
Palma,4.777065,40.587237,2.35229632487
Michurinsk,40.487657,52.917848,0.0216333076528
Turkmenabat,63.533208,38.977069,0.141060270806
Beijing,116.388286,39.928892,0.0
-,48.265724,55.108878,0.792197576366
Houma,111.160865,34.734582,0.88635545917
Lisbon,-10.48,37.870198,1.58424556177
-,6.200606,46.367977,0.169366466575
-,56.533036,56.451587,1.06935962146
-,8.422871,53.747859,0.252691511531
-,4.132552,47.591627,0.603009120992
Stanley,-56.035585,-51.985997,1.83640736222
Eisenstadt,16.663333,48.105742,0.30237228709
Magdagachi,126.013357,53.450493,0.213
-,68.589933,51.806627,0.242464430381
-,134.793939,48.74821,0.438320658879
Guiyang,106.639994,26.669278,0.119670380629
Atyrau,51.972931,47.119319,0.0533385414124
-,14.975056,49.794855,0.584829034847
Atbasar,68.115664,51.778987,0.235951266155
Zaragoza,-0.85922,41.684609,0.0467546789102
-,9.845568,53.54716,0.154029218007
Bergen,5.389709,60.392365,0.0650076918526
Enurmino,-173.764636,67.949668,2.18968125534
Urgentch,61.821424,41.058354,1.28326341801
-,-0.603913,43.19759,0.687890979734
-,1.542333,46.668485,0.887416474943
Tayshet,98.066724,55.916688,0.0797621464104
Zhangaozen,53.105895,44.166478,0.918472645211
Vyazma,34.276993,55.177068,0.0380788655293
Moengo,-54.130895,7.015517,1.41380231999
Le Havre,0.098384,49.502969,0.00728010988928
Manzanillo,-104.33491,19.118913,0.0700357051796
Naxcivan,45.429491,39.154812,0.0566127194189
Anadyr,177.486131,64.731645,0.0120830459736
-,38.664789,55.394972,0.337083075814
Yazd,53.750914,32.36465,0.76235556009
Zhijiang,109.905919,27.544222,0.250185930859
-,4.891906,52.396081,0.0523545604508
Palembang,105.089125,-2.251196,0.803966417209
-,29.006782,41.023725,0.0810555365166
-,12.877559,52.556182,0.247386337537
Voronezh,39.328267,51.734114,0.058137767415
Turpan,88.730901,43.166087,0.491647231254
-,50.114689,54.193673,0.5578180707
Puerto Natales,-77.147846,-53.78533,5.07592208372
Natal,-35.020748,-3.643461,2.14819226328
Emden,7.472024,53.244145,0.283114817698
Kineshma,43.003443,58.399652,1.27555046941
Volzhskiy,44.863552,48.743375,0.103942291681
Nürnberg,11.083278,49.243344,0.207021737989
Milan,9.048128,45.510828,0.162265215003
-,142.720034,40.59277,1.18291546613
Hania,23.857787,36.289195,0.792901633243
Klin,36.700836,56.345064,0.00282842712474
Lihue,-153.862106,35.578454,14.6697067796
-,62.224354,52.349616,0.494272192218
Canakkale,26.381823,40.121997,0.033941125497
Port Vila,170.584198,-18.004285,2.28314038114
-,70.855262,51.38541,0.608231041628
St. Petersburg,30.31602,59.939015,0.0
Duisburg,6.759729,51.439776,0.0141421356237
-,-0.618954,45.049914,0.201434852992
Aqtobe,57.221934,50.282784,0.0520864665724
-,54.89625,56.262567,0.657822164418
Dudinka,86.273201,69.313903,0.114542568506
Polyarnyy,33.626622,70.00514,0.819346690968
-,4.447395,51.523337,0.304685083324
Annecy,6.123822,45.919378,0.0202484567313
Kapan,46.54743,38.877701,0.349857113691
-,134.34899,48.596387,0.783786960851
Archangel,40.50101,64.568047,0.0445533388199
Khabarovsk,135.135381,48.482248,0.030886890423
Lüderitz,14.066135,-27.899381,1.66121943162
Limoges,1.249059,45.795535,0.0340147027034
Port-Gentil,7.651773,-0.595094,1.13490484183
Southampton,-1.421228,50.910868,0.0237065391823
Svobodnyy,128.17555,51.706405,0.303356226242
-,25.659338,39.769008,0.836742493244
's-Hertogenbosch,5.305459,51.599514,0.0838629834909
Baoding,115.464306,38.840243,0.034
-,-0.297017,47.870862,0.417432629295
Goteborg,11.973558,57.710573,0.046872166581
Zhetiqara,61.525275,50.758202,1.46302768258
Guangshui,114.234316,31.461209,0.282908112291
-,3.203484,50.791611,0.187864312737
-,-0.729925,41.955584,0.345305661697
Kolpino,30.552047,59.931744,0.224517259916
-,9.969545,52.37997,0.253333771929
Bizerte,9.477406,37.536568,0.451545125098
Balqash,74.98323,46.870175,0.0371214223865
-,10.943991,50.135156,0.133988805503
-,89.735539,0.647953,7.43038760766
-,39.180244,55.92956,0.22825424421
-,2.692916,57.217791,3.38979232402
Takapuna,174.886887,-36.646272,0.182608871636
-,10.886386,49.911578,0.364123605387
Utrecht,5.175215,52.062759,0.0662872536767
La Coruña,-9.226622,45.824318,2.62131360199
Nanchong,107.241086,30.96979,1.12712954003
Hachinohe,141.321696,40.562894,0.224350172721
Aleksandrovsk Sakhalinskiy,142.680661,50.849385,0.527189719171
Leipzig,12.653261,51.861001,0.579417811255
-,37.655571,55.773652,0.0456508488421
-,57.42876,49.523713,0.0534509120596
-,56.613848,49.199055,0.875006857116
-,32.34049,30.723681,0.156064089399
-,49.561485,36.021772,0.504207298638
-,-57.411801,45.115986,2.92648663076
Kovrov,41.431735,56.393243,0.107205410311
-,56.527546,30.880495,0.800689702694
Gryazi,39.936197,52.489276,0.00632455532034
Shizuoka,138.733719,33.68656,1.34506579765
-,3.010162,48.377441,0.376808970169
-,58.275367,43.092599,0.625423056818
Mayaguez,-67.507305,18.37501,0.405731438269
Sargodha,72.693412,32.083717,0.0180277563773
Buur Gaabo,45.941847,-5.199622,5.72014868688
Shangrao,118.29562,28.628904,0.362707871434
-,39.218358,44.822538,0.293824777716
-,48.584329,40.205454,0.43292609069
-,2.423899,48.745638,0.1514001321
-,56.806976,49.203489,0.69277990733
Shache,78.336319,39.902367,1.83247701213
Cape Town,18.267427,-34.184287,0.31292171545
Algeciras,-5.441799,36.13001,0.025179356624
Erzurum,41.029852,39.952807,0.262085863793
-,45.64011,57.425381,0.96394294437
Barranquilla,-75.284815,12.033269,1.17752027583
Hakodate,140.228786,41.463861,0.608836595484
Orenburg,55.082422,51.800916,0.035
Potsdam,13.192818,52.53551,0.183371208209
Yekaterinburg,60.598223,56.858989,0.00921954445729
Lhokseumawe,97.535561,6.197786,1.08169958861
Navoi,65.35645,40.113011,0.00316227766017
Bremerhaven,8.575773,53.540812,0.0098488578018
Usti Nad Labem,14.004586,50.538901,0.145437271702
Lappeenranta,28.231722,60.886318,0.187515332706
Androka,44.747242,-33.045732,8.05209041181
Colon,-79.922514,9.361938,0.0480936586256
Hechi,109.120381,23.183591,0.496678970765
-,44.387791,41.932633,0.453511852105
Lavrentiya,-170.793623,64.955777,0.668199072133
-,-103.277315,16.831134,1.55958744545
Bugt,122.083682,48.631633,0.214254521539
-,12.360324,45.420888,0.0308058436015
-,-0.738276,42.38293,0.748594015472
-,4.849699,52.415359,0.0933488082409
-,1.571566,45.437808,0.29062862901
-,32.335614,30.515758,0.106075444849
Tanjungpinang,104.574229,0.464967,0.46358710077
-,5.971351,50.717081,0.323932091649
-,37.71663,55.771956,0.102961157725
-,-6.846396,48.076199,2.37187626153
Haugesund,4.597461,59.793071,0.779461993942
-,73.315545,54.801818,0.20591260282
Hadiboh,53.821424,14.272843,1.63366153165
-,7.290069,52.764367,0.6074026671
Paris,2.333335,48.866693,0.0
Komsomolsk na Amure,136.926081,50.459244,0.134357731449
-,55.199859,31.686111,0.862354915334
Turku,21.916636,59.78102,0.753108889869
Pointe-Noire,10.558588,-5.148492,1.37401783103
Bielefeld,8.517229,51.643292,0.387218284692
Hangzhou,120.223194,30.291051,0.067007462271
Erenhot,112.696477,42.87893,1.07119092603
Glazov,52.860204,58.099212,0.232243406796
Tarbes,0.076769,43.244383,0.0125299640861
Tokyo,139.751407,35.685017,0.0
Nakhon Ratchasima,102.118759,14.987398,0.0230217288664
Shaoguan,113.595227,24.813263,0.0198494332413
-,5.990424,45.815392,0.152820155739
Kamenna Obi,81.72935,52.966164,0.915250785304
Kushiro,151.471542,42.06598,7.15497658976
Petrovsk Zabaykalskiy,108.941456,51.141841,0.177609121387
Kohat,71.976692,33.449683,0.565106184712
Nevelsk,141.687968,45.372897,1.31961092751
-,32.550604,39.971237,0.316077522137
-,60.410097,56.88126,0.192512337267
Lanzhou,103.431598,36.510448,0.579410044787
-,10.088696,53.383583,0.188353391262
Djibouti,43.148002,11.595014,0.0
Ermoupoli,25.67352,37.507576,0.743266439441
Chanaral,-74.663474,-28.672944,3.25265091887
Appenzell,9.458279,47.361116,0.0496487663492
Zhenjiang,119.414471,32.159677,0.062096698785
Barcelona,2.145592,41.379953,0.0371214223865
-,59.165865,55.152167,0.423480814205
Shenyeng,123.424663,41.780547,0.0346554469023
Århus,10.375121,55.971199,0.247975805271
-,32.325863,30.741841,0.165710591092
-,5.901681,45.588084,0.378905001287
-,54.189691,46.623783,0.398509723846
-,13.282915,52.528116,0.119151164493
-,30.16528,59.82025,0.192255038946
-,72.843729,49.542949,0.436354213913
-,41.482749,42.726108,0.548456926294
Ambarchik,162.774523,70.314302,0.796272566399
-,160.537198,53.692002,2.01501761779
Urzhar,81.724836,45.815556,1.28959528535
Kyshtym,60.529038,55.730139,0.0431393092202
Suzhou,120.758539,31.352241,0.148408220797
-,142.737062,52.319393,0.648919101275
-,29.499248,40.785752,0.43211572524
Jeddah,39.219198,21.516889,0.0
Gyor,17.568213,47.674884,0.0668505796534
Ufa,55.711766,54.635247,0.362779547384
Kolkata,88.324676,22.494969,0.0
Bikin,134.37615,46.693283,0.168671277934
-,6.345702,51.255259,0.435409003122
Volkhov,32.331644,59.919996,0.011401754251
-,17.134313,48.131768,0.0247588368063
-,0.535142,43.074157,0.479150289575
Qunghirot,58.76421,43.076988,0.136180027904
Hillerod,11.548835,56.442668,0.921913228021
Singapore,103.855821,1.293033,0.0
Lódz,19.36029,52.223285,0.457148772283
-,45.622735,38.93891,0.342667477301
The Hague,3.822603,52.54873,0.647896596688
-,44.912817,41.649598,0.143209636547
Luga,29.856224,58.742119,0.0180277563773
-,9.647744,47.418488,0.15479664079
Puerto Vallarta,-107.088133,18.958554,2.51955809617
Birsk,55.948434,56.506867,1.15590008219
Haarlem,4.657917,52.45989,0.0847584804017
-,72.917079,47.490673,0.786069335364
Kashan,51.920618,33.598578,0.51131399355
Starorybnoye,105.182318,72.751877,0.382294389182
Rubtsovsk,81.105357,51.300711,0.242870335776
Astrakhan,48.06687,46.351706,0.0123693168769
Siping,124.411964,43.157869,0.0828733974204
Ponta Delgada,-27.201413,36.094728,2.25511973075
Syzran,48.789514,53.177703,0.310103208626
-,43.800141,56.258353,0.213600093633
-,39.059159,54.973372,0.294151321602
Vanino,140.413494,49.973661,0.903332718327
La Paloma,-50.289426,-37.012733,4.53341041601
-,36.895727,55.614714,0.572346922766
Braunschweig,10.67135,52.421168,0.241830519166
Mereeg,50.357753,1.710289,3.68545967282
-,-79.998254,32.359095,0.433041568443
Izmir,27.151794,38.43615,0.0
Halifax,-63.573378,44.649603,0.027
-,71.579541,51.139144,0.157695909903
Qaraghandy,73.236181,50.106305,0.251956345425
-,80.208621,72.456816,1.10244999887
Albany,120.143783,-36.510884,2.70250624421
-,44.792753,41.821832,0.0970206163658
Longxi,104.710175,34.809792,0.248364651269
Bregenz,9.732556,47.503753,0.0364005494464
Jining,113.12686,40.993664,0.0592030404625
-,60.235042,56.837907,0.289108975993
Sumqayt,49.515243,40.649448,0.134111893581
Cherepanovo,83.279736,54.312368,0.118342722632
-,32.311236,30.547021,0.0667083203206
Seoul,126.999731,37.566349,0.0
-,32.324779,30.61791,0.0707742891169
Carnarvon,112.743138,-25.529266,1.10376174965
Shanghai,121.436505,31.216452,0.0
-,44.732061,69.566548,1.80244306429
-,3.437758,52.306518,0.823170091779
-,6.451188,51.200075,0.329607342151
Sadiqabad,69.828118,28.06061,0.385751215163
Uryupinsk,42.568067,50.644609,0.579317702129
Shadrinsk,62.900457,56.269725,0.75623078488
-,-25.781116,34.146331,3.60380354625
Bremen,8.620803,53.051418,0.181333946077
Tekirdag,27.475429,41.188718,0.201069639677
-,72.620091,48.530626,0.350907395191
-,60.631616,56.844782,0.0323882694814
Ingolstadt,11.435161,48.751499,0.0242074368738
-,-11.661154,39.827528,2.74795942474
Zhangye,99.864341,39.281827,0.683593446429
-,131.895984,43.495068,0.329243071301
Quellon,-78.044817,-45.143846,4.89243916671
Qusmuryn,64.718041,52.443545,0.11882760622
-,95.298068,41.636917,1.24288897332
Banda Aceh,94.206021,6.021097,1.20947798657
Guangyuan,106.030295,33.43572,1.01864419696
-,112.809529,-22.95225,1.66325283706
Cherepovets,37.367992,59.170861,0.542885807514
-,52.397655,55.977583,0.288735172779
Kolomna,38.788155,55.092684,0.0133416640641
-,60.999076,56.712874,0.421864907287
-,6.140463,46.248868,0.039
Orekhovo-Zuevo,38.883273,55.746063,0.122004098292
-,63.137785,55.200299,1.01315398632
Skikda,6.569354,38.083273,1.24770589483
Sendai,141.187062,38.654845,0.403297656824
-,0.947946,48.463273,0.966164064743
-,45.155614,39.26775,0.262710867685
-,9.175233,51.931945,0.652402483134
Zelenodolsk,48.518767,55.854155,0.136619910701
Mackay,150.899009,-20.517463,1.85799085035
Natashquan,-62.058887,48.959431,1.25671317332
Mumbai,71.212034,18.267948,1.80749163207
Dumyat,31.956944,31.787868,0.39267416518
-,4.571912,51.843608,0.119331471121
Bakal,58.381738,54.899158,0.416659333269
Bayghanin,55.541799,48.508573,0.379094974907
-,5.079376,52.382797,0.165326948801
-,32.484348,29.730408,0.282809122908
Molde,6.808495,65.60399,2.88051401663
Guangzhou,113.32501,23.144981,0.0
-,52.358414,44.252243,1.04960373475
San Diego,-117.190086,32.722707,0.0975141015443
-,82.902393,54.997647,0.0662419806467
Durban,31.089963,-29.739738,0.166508258053
Viljandi,26.028103,57.772677,0.735611990114
Portimao,-9.792511,36.730936,1.32287905721
Xinyi,118.508377,34.366304,0.158619040471
-,30.362483,59.928886,0.0470744091838
-,26.904625,38.430275,0.247072863747
Sakarya,30.357652,40.679732,0.0966074531286
Neuchatel,6.91918,46.861553,0.137058381721
Kuala Lumpur,101.699983,3.166666,0.0
Riviere-du-Loup,-69.434984,48.236769,0.415716249382
-,79.180571,75.063856,2.06996256005
-,54.337569,68.261372,1.42054813364
Yueyang,113.194159,29.384968,0.0941328847959
Ulyanovsk,48.352573,54.286044,0.0720069441096
Matara,80.652371,5.553331,0.410727403517
Abidjan,-4.025906,5.352115,0.0349284983931
-,2.629932,49.97653,0.338864279616
-,103.596325,0.803461,0.554707129934
-,4.489608,51.920353,0.01
Pisco,-79.419309,-15.003017,3.45042750974
Krasnokamensk,118.335203,49.16126,0.956298070687
Turin,7.65606,45.0653,0.0148660687473
Shantou,117.159298,22.687503,0.839193064795
Montreal,-73.573793,45.501438,0.00905538513814
Port Denison,114.788476,-30.246136,0.971601770274
Tulun,101.3017,54.440096,0.74752525041
-,5.143702,45.629405,0.344204880849
Nizhneyansk,136.608872,73.224396,1.87121484603
Agana,137.61116,16.005068,7.57572082379
Santo Antonio,7.094147,2.818557,1.21630588258
-,28.825651,40.965442,0.231205536266
Kaifeng,114.782471,34.835817,0.432226792321
-,32.349699,30.451975,0.164754362613
Urumqi,87.575006,43.805012,0.0
-,131.979612,43.398123,0.276990974582
-,5.52452,45.546578,0.41558873902
Setubal,-8.865622,37.969515,0.561031193429
-,32.344823,30.701325,0.139807009839
Skovorodino,123.703229,54.102926,0.245348731401
Hanoi,105.850014,21.033327,0.0
-,3.292422,48.249902,0.527375577743
-,1.258885,43.916742,0.35311471224
-,0.57139,48.115207,0.484836054765
Kuwait,47.978301,29.369718,0.0
Yuxi,102.499195,24.234236,0.162348390814
Rusanovo,55.870492,69.849984,0.900837388212
Tema,0.822175,4.30692,1.56084368212
Kashgar,75.961268,39.476336,0.009
-,40.143818,39.548836,0.682214775566
Nanning,108.123791,22.775046,0.201099477871
Hami,93.073029,43.013698,0.479930203259
-,4.056148,50.902614,0.285707892786
-,132.056606,43.999989,0.203393706884
-,39.624202,50.0887,1.0885113688
Burylbaytal,73.989438,45.128902,0.194373352083
-,-1.276306,47.07774,0.340617087064
-,11.593826,45.536818,0.611739323568
Tabriz,46.228842,38.089183,0.0720624728968
Petropavlovsk Kamchatskiy,158.709345,53.048298,0.0871320836432
Miami,-80.190084,25.757238,0.0460108682813
Qulan,72.669063,42.889836,0.0468614980554
Esil,66.766746,51.886779,0.396232255123
-,9.401708,53.113814,0.602959368449
Gusinoozyorsk,106.660355,51.445131,0.229120055866
Pervouralsk,60.06313,56.822912,0.138683091976
-,114.170314,22.262701,0.044598206242
-,2.305184,48.647167,0.22177466041
Papeete,-137.952953,-20.484912,11.9832925359
Plymouth,-4.1788,49.753181,0.632285536763
-,141.788878,52.038518,1.15724673255
-,158.251872,51.358801,1.74294291358
-,3.203156,62.549758,3.02723718925
Athens,23.733321,37.983326,0.0
Telukbutun,109.891234,6.919946,3.18836792105
Bangkok,100.525302,13.758378,0.011313708499
-,30.857022,59.559029,0.268495810023
-,88.074845,-25.928848,25.5956923329
-,103.695505,1.093449,0.256124969497
Zurich,8.477168,47.381653,0.073027392121
Kundian,71.486941,32.469551,0.0234307490277
Kirikkale,33.961541,39.907027,0.435744191011
-,56.340906,26.938864,0.273835717174
Bandarbeyla,52.908219,8.412118,2.34932373248
Ismailia,32.301485,30.570812,0.0451884941108
-,131.513971,73.620305,3.33902530688
-,43.640317,40.3396,0.494418850773
-,32.316653,30.60439,0.0586941223633
Anzhero Sudzhensk,86.462762,56.20649,0.441367194069
-,67.233033,55.219257,1.62714873321
Arys,68.831252,42.41963,0.031064449134
-,9.735657,53.548394,0.264007575649
-,104.341472,19.461535,0.982374673941
-,131.644642,44.273989,0.604401356716
Artashat,44.642998,39.906769,0.103310212467
Perryville,-159.254388,54.951894,0.972470050953
Sukkur,68.903193,27.667094,0.0715891053164
-,117.852009,41.830029,0.873489553458
Puntarenas,-85.708552,8.12108,2.04558695733
Logashkino,156.28607,71.871317,2.5952720474
Sol-lletsk,54.900064,51.218785,0.116107708616
Severodvinsk,39.514477,65.133953,0.646492072651
Yerevan,44.416608,40.059186,0.155862118554
-,79.950749,51.552039,1.16304127184
Melun,2.722876,48.586331,0.0771038261048
De Kastri,140.900395,51.752982,0.309006472424
Qyzylorda,65.399299,44.897916,0.118152443902
Wuhan,114.333678,30.750707,0.182584227139
-,60.091731,49.967657,0.961287157929
Puerto Williams,-67.77668,-56.794129,1.86786535917
-,4.656707,46.403454,0.656214903823
-,4.968715,51.833995,0.305870887794
Brest,23.158436,52.022329,0.547583783544
-,83.718645,-6.583848,12.9291556182
-,-73.740644,31.905794,4.61026430913
Buy,41.501353,58.478195,0.0240416305603
Bukachacha,117.368236,53.016088,0.452205705404
-,56.212567,-2.820877,1.95135465767
-,13.357056,52.537384,0.0474341649025
-,10.321652,53.530442,0.322620520116
Kanash,47.534842,55.520066,0.0669103878333
-,36.042043,55.491815,0.709808424858
Lahore,74.322151,31.552292,0.0291204395571
Lianyungang,119.354948,34.727989,0.224964441635
-,58.025841,49.872411,0.581532458251
Tayynsha,69.798062,53.890139,0.0540370243444
Tatabanya,18.175567,47.736919,0.317833289635
Manjimup,116.26021,-35.888308,1.65865156076
Dombarovskiy,60.188472,50.467619,0.708712212397
Matsue,132.995565,38.823167,3.35675095889
Alotau,152.814218,-11.95132,2.87493060786
-,-0.727526,45.176722,0.353012747645
-,25.175283,52.638452,0.975317896893
-,60.386027,56.877679,0.215824002372
Miyazaki,133.011866,30.861862,1.9120596225
Koror,132.62286,6.69096,1.95936852072
Assab,42.197495,13.983314,1.10942237223
-,49.972278,46.775138,1.84078244233
Zielona Gora,15.527812,52.242224,0.293339393877
Xiangtan,112.858225,27.90913,0.072422372234
-,53.829692,47.217116,0.299541316015
-,12.166458,47.589721,0.262085863793
-,32.571064,30.0541,0.053310411741
-,49.424327,39.991287,0.507441622258
-,1.53793,46.354624,0.598806312592
-,1.378591,44.592047,0.578860950488
Bataysk,39.562502,46.764498,0.415033733569
-,70.738289,52.070311,0.657635157211
-,62.103473,28.776437,1.46448113679
Tuapse,39.188298,44.117484,0.124016127983
-,49.473449,40.178312,0.431570388233
-,-0.906891,47.411619,0.383083541803
Farafangana,51.735338,-25.091574,4.51677196679
Versailles,1.816185,48.634033,0.357833760285
-,82.899842,70.226252,1.61483126053
Khaskovo,25.878101,42.015798,0.323123815278
-,2.342858,48.944164,0.0776466354712
Polatli,32.021465,39.553601,0.12952219887
Bratislava,17.116981,48.150018,0.0
-,100.600775,3.016411,0.949008429889
-,62.326242,51.730746,0.998543939945
-,1.858657,46.877844,0.578892908922
-,2.605239,59.246685,2.6770896511
Jinzhou,121.137546,41.079356,0.0559016994375
-,8.850278,53.863309,0.413363036567
Semey,80.211707,50.383567,0.0810555365166
Yalutorovsk,66.501482,56.527717,0.250049995001
-,36.080663,39.107685,0.698863362897
Ussuriysk,131.982175,43.80536,0.0383275357935
Yozgat,34.950219,39.260141,0.574098423617
Buenos Aires,-58.409207,-34.594869,0.0136014705087
Veracruz,-96.207061,19.227675,0.0693541635376
-,112.534976,27.768525,0.373879659784
-,52.947107,56.534723,0.423454838206
-,6.218221,52.163129,0.343001457723
Mudangiang,129.419112,44.547976,0.173118456555
New Delhi,77.204309,28.596225,0.00565685424949
Busan,129.010048,35.095053,0.0
Izmit,29.961092,40.773759,0.0300665927567
-,13.026405,51.97881,0.423293042702
-,30.259209,59.917767,0.0607453701939
Tovuz,45.387321,41.27147,0.36933047532
Leninogorsk,51.962643,54.236842,0.606003300321
-,-118.754092,33.996181,0.574031358028
-,38.763523,55.232837,0.154434452115
-,-101.174543,-11.13103,14.3938934274
Anxi,95.778282,40.595925,0.098488578018
Tikhoretsk,40.097039,45.861588,0.0419761837236
-,11.819905,47.90718,0.318147764411
Gyzlarbat,55.674408,39.243934,0.660787409081
Vladimir,40.418754,56.139919,0.0134536240471
-,109.912771,27.548612,0.258629078025
Rabaul,152.41987,-5.009028,0.850379327124
-,46.627173,44.259847,1.3216145429
-,-105.620911,18.139466,1.58578844743
-,44.837264,41.690328,0.0578013840665
Nassau,-73.599506,27.388465,4.401763851
Nanjing,118.493007,32.092314,0.290056890971
-,64.623399,44.92198,0.78573596074
Gorgan,54.44803,36.842441,0.0341760149813
Oranjestad,-70.782352,12.90758,0.842551482107
-,10.90495,48.953409,0.525655780906
Male,70.472072,2.282579,3.56626415174
-,97.050358,-20.480293,16.7680469942
-,32.317737,30.815844,0.233323809329
-,73.411901,45.536375,0.619600677856
Auxerre,3.83958,47.911866,0.295081344717
Vanadzor,44.541393,40.814403,0.0530094331228
-,60.521998,56.861947,0.0789176786278
-,5.342089,52.758029,0.58914259734
-,103.720557,1.075765,0.255566038432
New York,-74.015596,40.706032,0.0568506816142
-,39.556494,69.374189,4.81180756057
Amursk,136.654045,50.166445,0.249595673039
-,-0.374226,45.086665,0.324052464888
-,-52.893301,-45.406286,8.01163435261
Warsaw,21.073605,52.259391,0.0745452882482
Taraz,71.375613,42.889836,0.0148660687473
-,131.934804,43.46949,0.339920578959
Grand Bassam,-3.89128,3.966236,1.24202938774
-,13.370201,52.5252,0.03214031736
Taldyqorghan,78.407861,45.433924,0.434073726457
Yakeshi,120.785501,49.260592,0.0591354377679
Jiaojing,122.171506,27.494002,1.3884811846
Ushtobe,77.410588,46.914895,1.7421196859
Wuppertal,7.285002,51.289886,0.121757956619
Ugolnye Kopi,178.378134,69.762953,5.07548854791
-,30.756607,30.810169,0.243821656134
Kunming,102.864242,25.010215,0.193535526454
Genoa,8.941162,44.417742,0.0136014705087
Tehran,51.424344,35.671943,0.0
Fengcheng,115.948193,28.317691,0.213560295935
-,14.752877,48.066931,0.528015151298
Sarqan,78.878426,46.26206,1.33578927979
Noginsk,38.401848,55.719902,0.169068033643
-,112.93496,28.349834,0.154029218007
Sukhumi,41.018304,43.070765,0.0510392006207
Solothurn,7.623816,47.237321,0.0905207158611
Pisa,9.827169,44.094432,0.6842550694
Mangyshlak,51.163003,43.652056,0.0434165866922
-,14.441922,50.387271,0.304945896841
Prince Rupert,-130.323635,54.467993,0.151119158282
-,6.082061,46.050113,0.154029218007
-,58.311014,56.847435,0.60515122077
Gatchina,30.128914,59.543265,0.0282842712475
Tianjin,117.196641,39.126929,0.00424264068712
-,131.900849,43.552183,0.275072717658
Benha,31.169198,30.491881,0.0286530975638
Zhengzhou,113.665093,34.754996,0.0
Krasnoufimsk,57.631266,56.555105,0.135351394526
Saint Gallen,9.365886,47.425442,0.004472135955
Guadalajara,-2.344315,41.183475,0.989307838845
-,49.185079,39.887404,0.268793601114
-,12.479183,41.892334,0.00565685424949
-,27.902059,41.25995,0.475420866181
Port Alfred,27.320033,-33.941167,0.556669560871
Sherlovaya Gora,115.94189,50.678612,0.388310442816
-,9.552257,52.215057,0.224341257909
Zhosaly,63.783086,45.756225,0.398558653149
Korla,86.273163,41.78263,0.13393281898
Talara,-84.222191,-4.136542,2.97516604579
-,39.423244,65.672659,1.17569468826
-,11.575743,48.596299,0.21483016548
Tartu,26.6015,57.842654,0.551674723003
Erymentau,73.64804,51.620142,0.543092073225
Tomakomai,141.710506,41.696383,0.967490051628
Tofino,-125.628906,48.423847,0.77785602781
Riyadh,46.772742,24.640833,0.0
-,9.679882,52.351088,0.0403112887415
-,32.342792,30.48641,0.13306013678
Vienna,16.390998,48.211801,0.02683281573
-,9.761116,52.372783,0.0444072066223
Vologda,39.884834,59.22137,0.0366878726557
Coffs Harbour,153.524956,-30.801993,0.644665804894
-,124.032607,37.302415,1.43012621821
Dickson,80.43203,73.484831,0.115121674762
Kazan,49.183166,55.848221,0.113371072148
Anyang,114.381882,35.959672,0.12419339757
Ulladulla,151.166055,-35.443422,0.702185872829
-,30.056671,40.473763,0.327230805396
Alexandria,29.949996,31.200019,0.0
-,26.128248,59.339952,1.11445951026
-,4.158652,51.395492,0.310098371489
-,48.674155,46.649757,0.688303712034
Balyqshy,51.535732,47.254462,0.38017101415
Sydney,151.224988,-33.975475,0.0680073525437
Vadsø,30.073882,71.024371,0.976828029901
-,78.809937,50.622842,1.4770135409
-,154.586113,48.732743,2.46512677159
-,142.802313,51.516437,0.483439758398
-,4.20994,50.838016,0.123101584068
Hong Kong,114.18514,22.305738,0.001
Varamin,52.344198,35.226069,0.702915357636
-,124.386525,31.140874,2.95095323582
-,4.669196,51.680848,0.304699852314
Port-De-Paix,-73.440312,20.778145,1.04356935563
-,32.360062,30.405732,0.209418241803
Arras,2.77479,50.282932,0.008
